{
"type": "FeatureCollection",
"name": "hoods_sampled",
"features": [
{ "type": "Feature", "properties": { "Name": "Ngara East", "barrier_quartile": 1.0, "Income Level": "Low", "geometry": null, "Address": "Webuye Road" }, "geometry": null },
{ "type": "Feature", "properties": { "Name": "Habib Ismailia", "barrier_quartile": 1.0, "Income Level": "Low", "geometry": null, "Address": "Platinum Apartments" }, "geometry": null },
{ "type": "Feature", "properties": { "Name": "Kenya Railways Estate", "barrier_quartile": 1.0, "Income Level": "Low", "geometry": null, "Address": "Railway Quarters" }, "geometry": null },
{ "type": "Feature", "properties": { "Name": "Ushirika Estate", "barrier_quartile": 1.0, "Income Level": "Low/Middle", "geometry": null, "Address": "Burhan estate medical center" }, "geometry": null },
{ "type": "Feature", "properties": { "Name": "Mbono Estate", "barrier_quartile": 1.0, "Income Level": "Low/Middle", "geometry": null, "Address": "Gate Villa Lounge" }, "geometry": null },
{ "type": "Feature", "properties": { "Name": "BabaDogo", "barrier_quartile": 1.0, "Income Level": "Low/Middle", "geometry": null, "Address": "At the coner of Northview Road and Nyasi Lane" }, "geometry": null },
{ "type": "Feature", "properties": { "Name": "Kariokor", "barrier_quartile": 2.0, "Income Level": "Low", "geometry": null, "Address": "Africa Inland Church - Ziwani" }, "geometry": null },
{ "type": "Feature", "properties": { "Name": "California Estate", "barrier_quartile": 2.0, "Income Level": "Low", "geometry": null, "Address": "Desa Grounds" }, "geometry": null },
{ "type": "Feature", "properties": { "Name": "Eastleigh residential/ Racecourse Estates", "barrier_quartile": 3.0, "Income Level": "Low/Middle", "geometry": null, "Address": "Sisters of Notre Dame de Namur" }, "geometry": null },
{ "type": "Feature", "properties": { "Name": "City Park Estate", "barrier_quartile": 2.0, "Income Level": "High", "geometry": null, "Address": "Casic Court Apartments" }, "geometry": null },
{ "type": "Feature", "properties": { "Name": "Woodley", "barrier_quartile": 2.0, "Income Level": "High/Middle", "geometry": null, "Address": "Lulu's Guest House" }, "geometry": null },
{ "type": "Feature", "properties": { "Name": "Kianda Triangle", "barrier_quartile": 3.0, "Income Level": "High", "geometry": null, "Address": "Wood Green Villas" }, "geometry": null },
{ "type": "Feature", "properties": { "Name": "Spring Valley", "barrier_quartile": 1.0, "Income Level": "High", "geometry": null, "Address": "Orchard Close Road" }, "geometry": null },
{ "type": "Feature", "properties": { "Name": "Huruma", "barrier_quartile": 4.0, "Income Level": "Low", "geometry": null, "Address": "Huruma CDF social Hall" }, "geometry": null },
{ "type": "Feature", "properties": { "Name": "Korogocho", "barrier_quartile": 2.0, "Income Level": "Low", "geometry": null, "Address": "Ngomomngo SDA Church" }, "geometry": null },
{ "type": "Feature", "properties": { "Name": "Mathare 4A", "barrier_quartile": 4.0, "Income Level": "Low", "geometry": null, "Address": "Jangwani CDF Water Project" }, "geometry": null },
{ "type": "Feature", "properties": { "Name": "Mathare North 1 and 2", "barrier_quartile": 4.0, "Income Level": "Low", "geometry": null, "Address": "Jane's Paradise Bar and Restaurant" }, "geometry": null },
{ "type": "Feature", "properties": { "Name": "Kaloleni 8A", "barrier_quartile": 3.0, "Income Level": "Low", "geometry": null, "Address": "Kaloeni Social Hall" }, "geometry": null },
{ "type": "Feature", "properties": { "Name": "Jerusalem 8A", "barrier_quartile": 1.0, "Income Level": "Low", "geometry": null, "Address": "Church of Christ in Africa" }, "geometry": null },
{ "type": "Feature", "properties": { "Name": "Harambee NCC Estate 8H", "barrier_quartile": 3.0, "Income Level": "Low", "geometry": null, "Address": "Chege Kibiro road" }, "geometry": null },
{ "type": "Feature", "properties": { "Name": "Jerusalem", "barrier_quartile": 1.0, "Income Level": "Low", "geometry": null, "Address": "Kiokz Auto Spares" }, "geometry": null },
{ "type": "Feature", "properties": { "Name": "Matopeni", "barrier_quartile": 3.0, "Income Level": "Low", "geometry": null, "Address": "Matopeni Primary School" }, "geometry": null },
{ "type": "Feature", "properties": { "Name": "Umoja 3-8", "barrier_quartile": 4.0, "Income Level": "Low", "geometry": null, "Address": "Deliverance Church International Umoja 3 Campus" }, "geometry": null },
{ "type": "Feature", "properties": { "Name": "Kayole Soweto", "barrier_quartile": 1.0, "Income Level": "Low", "geometry": null, "Address": "Vessel of Hope Centre Primary" }, "geometry": null },
{ "type": "Feature", "properties": { "Name": "Kayole Commercial/Residential", "barrier_quartile": 2.0, "Income Level": "Low", "geometry": null, "Address": "The River from the Temple Ministries" }, "geometry": null },
{ "type": "Feature", "properties": { "Name": "Mukuru  SPA", "barrier_quartile": 4.0, "Income Level": "Low", "geometry": null, "Address": null }, "geometry": null },
{ "type": "Feature", "properties": { "Name": "Nyayo Highrise", "barrier_quartile": 1.0, "Income Level": "Middle", "geometry": null, "Address": "Kemri Estate" }, "geometry": null },
{ "type": "Feature", "properties": { "Name": "Villa Franca Estate", "barrier_quartile": 4.0, "Income Level": "Middle", "geometry": null, "Address": "St.Philiphs Gifted school" }, "geometry": null },
{ "type": "Feature", "properties": { "Name": "Nyayo Estate", "barrier_quartile": 4.0, "Income Level": "Middle", "geometry": null, "Address": "Fahari Road" }, "geometry": null },
{ "type": "Feature", "properties": { "Name": "Avenue Park", "barrier_quartile": 2.0, "Income Level": "Middle", "geometry": null, "Address": "True Light Properties" }, "geometry": null },
{ "type": "Feature", "properties": { "Name": "Madaraka", "barrier_quartile": 2.0, "Income Level": "Middle", "geometry": null, "Address": "Funguo Estate" }, "geometry": null },
{ "type": "Feature", "properties": { "Name": "Nairobi West", "barrier_quartile": 3.0, "Income Level": "Middle", "geometry": null, "Address": "Geta Close" }, "geometry": null },
{ "type": "Feature", "properties": { "Name": "Nairobi Dam", "barrier_quartile": 3.0, "Income Level": "Middle", "geometry": null, "Address": "Kikulu International Projects Kenya" }, "geometry": null },
{ "type": "Feature", "properties": { "Name": "Olympic", "barrier_quartile": 1.0, "Income Level": "Low/Middle", "geometry": null, "Address": "St. Vincent De Paul Nursery School" }, "geometry": null },
{ "type": "Feature", "properties": { "Name": "Fort Jesus", "barrier_quartile": 2.0, "Income Level": "Middle", "geometry": null, "Address": "Little Prince Primary School" }, "geometry": null },
{ "type": "Feature", "properties": { "Name": "Gweng'wa Gardens", "barrier_quartile": 4.0, "Income Level": "High", "geometry": null, "Address": "Bogani Park" }, "geometry": null },
{ "type": "Feature", "properties": { "Name": "Huruma Village", "barrier_quartile": 1.0, "Income Level": "Low", "geometry": null, "Address": "Huruma Mradi Hall" }, "geometry": null },
{ "type": "Feature", "properties": { "Name": "Mirema", "barrier_quartile": 3.0, "Income Level": "Middle", "geometry": null, "Address": "Chosen Generation Church Mirema" }, "geometry": null },
{ "type": "Feature", "properties": { "Name": "Safari Park/Balozi Estate", "barrier_quartile": 3.0, "Income Level": "Middle", "geometry": null, "Address": "The Allen Rose Residence" }, "geometry": null },
{ "type": "Feature", "properties": { "Name": "Marurui", "barrier_quartile": 4.0, "Income Level": "Middle", "geometry": null, "Address": "St. Mary's Catholic Church Marururi" }, "geometry": null },
{ "type": "Feature", "properties": { "Name": "Kangemi", "barrier_quartile": 3.0, "Income Level": "Low", "geometry": null, "Address": "Kangemi Highschool" }, "geometry": null },
{ "type": "Feature", "properties": { "Name": "Waithaka", "barrier_quartile": 3.0, "Income Level": "Low", "geometry": null, "Address": "Free Pentecostal Church Waithaka" }, "geometry": null },
{ "type": "Feature", "properties": { "Name": "Riruta", "barrier_quartile": 3.0, "Income Level": "Low", "geometry": null, "Address": "St Jude Primary and Junior School" }, "geometry": null },
{ "type": "Feature", "properties": { "Name": "Mutuini", "barrier_quartile": 2.0, "Income Level": "Low", "geometry": null, "Address": "Alwafa bakery" }, "geometry": null },
{ "type": "Feature", "properties": { "Name": "Ruaraka", "barrier_quartile": 1.0, "Income Level": "Low", "geometry": null, "Address": "Ramata Greens Apartments" }, "geometry": null },
{ "type": "Feature", "properties": { "Name": "Kongo Estate", "barrier_quartile": 2.0, "Income Level": "Low", "geometry": null, "Address": "Divine Connection Ministry" }, "geometry": null },
{ "type": "Feature", "properties": { "Name": "Jacaranda gardens", "barrier_quartile": 2.0, "Income Level": "Low", "geometry": null, "Address": "ACK DIOCESE of Nairobi ARCH Bishop" }, "geometry": null },
{ "type": "Feature", "properties": { "Name": "Kahawa West Phase I", "barrier_quartile": 2.0, "Income Level": "Low/Middle", "geometry": null, "Address": "PCEA Kahawa Station Church" }, "geometry": null },
{ "type": "Feature", "properties": { "Name": "City Chicken Estate", "barrier_quartile": 4.0, "Income Level": "Low", "geometry": null, "Address": "Mama Fauzia Children's home" }, "geometry": null },
{ "type": "Feature", "properties": { "Name": "Sunton Estate", "barrier_quartile": 3.0, "Income Level": "Low", "geometry": null, "Address": "10th Avanue Apartments Chieko" }, "geometry": null },
{ "type": "Feature", "properties": { "Name": "Chokaa Estate", "barrier_quartile": 2.0, "Income Level": "Low", "geometry": null, "Address": "Emmanuel Community Hospital" }, "geometry": null },
{ "type": "Feature", "properties": { "Name": "Buruburu farmers Estate", "barrier_quartile": 3.0, "Income Level": "Low", "geometry": null, "Address": "Legio Maria" }, "geometry": null },
{ "type": "Feature", "properties": { "Name": "Mihang'o Estate", "barrier_quartile": 4.0, "Income Level": "Low", "geometry": null, "Address": "Mihango SDA Church" }, "geometry": null },
{ "type": "Feature", "properties": { "Name": "Ruai", "barrier_quartile": 4.0, "Income Level": "Low/Middle", "geometry": null, "Address": "Ruai Boys High school" }, "geometry": null },
{ "type": "Feature", "properties": { "Name": "Kamulu", "barrier_quartile": 4.0, "Income Level": "Low", "geometry": null, "Address": "Summer Rock School" }, "geometry": null },
{ "type": "Feature", "properties": { "Name": "Ngundo/Drumsvale", "barrier_quartile": 4.0, "Income Level": "Middle", "geometry": null, "Address": "Sawa Sawa Road" }, "geometry": null }
]
}
